[
  {
    "name": "Norway",
    "lat": 60.4720,
    "lng": 8.4689,
    "era": "ancient",
    "date": "1100 AD",
    "info": "Origin of cross-country skiing. Used for survival and travel in snowy regions.",
    "image": "photo.JPEG"
  },
  {
    "name": "Sweden",
    "lat": 60.1282,
    "lng": 18.6435,
    "era": "medieval",
    "date": "1500 AD",
    "info": "Skiing spread as a common winter transportation method.",
    "image": "photo.JPEG"
  },
  {
    "name": "Finland",
    "lat": 61.9241,
    "lng": 25.7482,
    "era": "medieval",
    "date": "1750 AD",
    "info": "Used for long-distance travel and military movement in winter.",
    "image": "photo.JPEG"
  },
  {
    "name": "Russia",
    "lat": 61.5240,
    "lng": 105.3188,
    "era": "modern",
    "date": "1850 AD",
    "info": "Ski troops used skiing for mobility in harsh winter conditions.",
    "image": "photo.JPEG"
  },
  {
    "name": "United States",
    "lat": 37.0902,
    "lng": -95.7129,
    "era": "contemporary",
    "date": "1950 AD",
    "info": "Cross-country skiing became a competitive and Olympic sport.",
    "image": "photo.JPEG"
  },
  {
    "name": "Iceland",
    "lat": 64.9631,
    "lng": -19.0208,
    "era": "ancient",
    "date": "1200 AD",
    "info": "Vikings used skiing for exploration and travel across snowy terrain.",
    "image": "photo.JPEG"
  },
  {
    "name": "Alaska",
    "lat": 64.2008,
    "lng": -149.4937,
    "era": "modern",
    "date": "1900 AD",
    "info": "Jack Leveque is pretty good at skiing.",
    "image": "photo.JPEG"
  }
]
